,City,Temperature,Wind,Cloud,Humidity,Latitude,Longitude,Country,Date
0,mehamn,39.2,20.8,75,86,71.04,27.85,NO,1587311210
1,barrow,8.6,3.36,90,78,71.29,-156.79,US,1587311141
2,nanma,57.99,8.37,1,73,36.18,118.16,CN,1587311211
3,el balsamo,87.8,9.17,5,52,15.07,-87.47,HN,1587311211
4,kapaa,71.6,4.7,90,83,22.08,-159.32,US,1587311211
5,ushuaia,44.6,1.1,75,75,-54.8,-68.3,AR,1587311044
6,vaini,77.0,8.05,20,83,-21.2,-175.2,TO,1587311211
7,bayji,83.91,13.0,1,22,34.93,43.49,IQ,1587311211
8,new norfolk,48.0,3.51,100,83,-42.78,147.06,AU,1587311211
9,ribeira grande,62.6,25.28,40,63,38.52,-28.7,PT,1587311211
10,esperance,55.4,4.7,75,82,-33.87,121.9,AU,1587311212
11,kunjah,77.0,2.91,40,61,32.53,73.97,PK,1587311212
12,khatanga,18.73,4.99,43,94,71.97,102.5,RU,1587311212
13,luderitz,73.4,10.29,0,56,-26.65,15.16,NA,1587311212
14,hobart,51.01,5.82,75,87,-42.88,147.33,AU,1587311213
15,jamestown,46.4,17.22,75,72,42.1,-79.24,US,1587311196
16,souillac,78.01,11.41,40,73,-20.52,57.52,MU,1587311213
17,petit goave,89.6,13.87,20,46,18.43,-72.87,HT,1587311213
18,tiksi,9.7,6.42,72,84,71.69,128.87,RU,1587311213
19,kruisfontein,87.51,5.41,15,32,-34.0,24.73,ZA,1587311213
20,perelyub,48.92,3.15,100,50,51.87,50.37,RU,1587311214
21,methoni,70.0,8.03,2,60,36.82,21.7,GR,1587311214
22,rikitea,76.51,6.33,20,69,-23.12,-134.97,PF,1587311214
23,andros town,84.2,6.93,75,70,24.7,-77.77,BS,1587311214
24,popondetta,76.75,3.09,9,81,-8.75,148.25,PG,1587311214
25,sioux lookout,23.0,10.29,20,41,50.1,-91.92,CA,1587311131
26,eyemouth,55.0,1.01,0,62,55.87,-2.09,GB,1587311215
27,mataura,43.0,5.01,87,84,-46.19,168.86,NZ,1587311215
28,hilo,66.99,9.17,90,68,19.73,-155.09,US,1587310929
29,codrington,57.7,22.68,100,77,-38.27,141.97,AU,1587311215
30,talnakh,39.2,31.32,100,69,69.49,88.4,RU,1587311215
31,caravelas,77.56,17.6,90,80,-17.71,-39.25,BR,1587311215
32,ende,81.52,1.66,87,75,-8.84,121.66,ID,1587311216
33,roald,50.0,9.17,0,61,62.58,6.13,NO,1587311216
34,garden city,55.4,11.41,90,50,42.33,-83.33,US,1587311083
35,tukrah,68.4,13.53,0,38,32.53,20.58,LY,1587311216
36,ginda,51.26,5.7,82,35,30.69,78.49,IN,1587311216
37,port arthur,52.0,4.47,40,87,38.8,121.27,CN,1587311216
38,broken hill,69.8,16.11,75,26,-31.95,141.43,AU,1587311216
39,penalva,91.26,2.35,82,57,-3.29,-45.17,BR,1587311076
40,albany,55.99,8.99,2,34,42.6,-73.97,US,1587311032
41,kavieng,84.07,4.27,34,70,-2.57,150.8,PG,1587311217
42,puerto ayora,84.0,13.87,40,83,-0.74,-90.35,EC,1587311217
43,hovd,41.27,0.43,0,31,48.01,91.64,MN,1587311217
44,mar del plata,73.0,20.8,0,64,-38.0,-57.56,AR,1587311217
45,haines junction,39.0,2.08,100,56,60.75,-137.51,CA,1587311217
46,mount gambier,55.4,21.92,90,87,-37.83,140.77,AU,1587311217
47,bambous virieux,78.01,11.41,40,73,-20.34,57.76,MU,1587311218
48,dunedin,50.0,11.54,2,60,-45.87,170.5,NZ,1587311106
49,marsa matruh,64.4,4.7,0,63,31.35,27.25,EG,1587311218
50,port elizabeth,78.8,6.93,0,57,-33.92,25.57,ZA,1587311218
51,opuwo,86.65,13.11,62,24,-18.06,13.84,NA,1587311218
52,puerto ayacucho,84.2,5.82,40,66,5.66,-67.62,VE,1587311218
53,samarai,80.26,3.6,2,82,-10.62,150.67,PG,1587311219
54,naze,71.6,13.87,95,94,28.37,129.48,JP,1587311219
55,marsh harbour,79.48,6.87,11,72,26.54,-77.06,BS,1587311219
56,namatanai,82.31,3.51,43,73,-3.67,152.43,PG,1587311219
57,busselton,55.0,9.4,95,59,-33.65,115.33,AU,1587311219
58,tuktoyaktuk,5.0,14.99,90,84,69.45,-133.04,CA,1587311219
59,zarubino,41.29,11.83,100,89,42.63,131.09,RU,1587311220
60,punta arenas,44.6,42.5,40,65,-53.15,-70.92,CL,1587311220
61,lorengau,82.69,3.4,50,77,-2.02,147.27,PG,1587311137
62,north bend,51.01,3.36,90,87,43.41,-124.22,US,1587311220
63,hualmay,75.0,7.87,34,66,-11.1,-77.61,PE,1587311220
64,airai,61.09,2.48,27,65,-8.93,125.41,TL,1587311220
65,verkhnyaya inta,34.0,0.63,98,88,65.98,60.31,RU,1587311220
66,hermanus,70.0,1.01,57,76,-34.42,19.23,ZA,1587311197
67,chifeng,42.64,30.89,82,50,42.27,118.96,CN,1587311221
68,batagay-alyta,10.78,1.92,99,83,67.8,130.41,RU,1587311221
69,sao filipe,73.04,20.47,24,70,14.9,-24.5,CV,1587311221
70,kaiyuan,70.41,5.1,9,36,23.7,103.3,CN,1587311221
71,sao jose da coroa grande,84.2,8.1,87,70,-8.9,-35.15,BR,1587311221
72,mahebourg,78.01,11.41,40,73,-20.41,57.7,MU,1587311222
73,lata,64.0,8.99,1,70,40.16,-8.33,PT,1587311222
74,tuatapere,43.0,5.01,79,84,-46.13,167.68,NZ,1587311222
75,hithadhoo,85.23,11.41,29,74,-0.6,73.08,MV,1587311222
76,avarua,77.0,3.36,21,83,-21.21,-159.78,CK,1587311222
77,kahului,68.0,9.44,1,82,20.89,-156.47,US,1587311222
78,araouane,97.74,12.5,2,20,18.9,-3.53,ML,1587311223
79,faanui,82.51,14.38,79,78,-16.48,-151.75,PF,1587311223
80,rancho palos verdes,61.0,3.36,75,87,33.74,-118.39,US,1587311223
81,bredasdorp,73.4,16.11,7,49,-34.53,20.04,ZA,1587311127
82,lagoa,58.28,32.84,24,66,39.05,-27.98,PT,1587311223
83,ilulissat,28.4,16.11,19,50,69.22,-51.1,GL,1587311223
84,maningrida,79.9,6.13,7,81,-12.07,134.27,AU,1587311223
85,sechura,75.15,6.46,1,71,-5.56,-80.82,PE,1587311223
86,lebu,60.04,5.75,100,67,-37.62,-73.65,CL,1587311224
87,cidreira,72.68,13.27,0,63,-30.18,-50.21,BR,1587311224
88,mount isa,64.4,6.78,8,45,-20.73,139.5,AU,1587311224
89,nikolskoye,44.01,13.42,75,68,59.7,30.79,RU,1587311224
90,grindavik,46.99,23.04,90,100,63.84,-22.43,IS,1587311224
91,coxim,84.11,8.3,15,55,-18.51,-54.76,BR,1587311224
92,kaitangata,48.99,11.01,54,54,-46.28,169.85,NZ,1587311225
93,payo,75.87,1.7,100,88,-3.75,103.64,ID,1587311225
94,cape town,72.0,18.34,20,88,-33.93,18.42,ZA,1587311113
95,ponta do sol,69.01,7.0,21,51,32.67,-17.1,PT,1587311225
96,lasa,59.0,8.05,75,54,46.62,10.7,IT,1587311226
97,goundam,102.16,6.98,98,13,16.41,-3.67,ML,1587311226
98,kpandae,98.24,6.82,33,32,8.47,-0.01,GH,1587311226
99,dikson,35.98,23.87,100,92,73.51,80.55,RU,1587311226
100,bluff,43.0,5.01,96,84,-46.6,168.33,NZ,1587311226
101,margate,49.33,21.61,0,75,51.38,1.39,GB,1587311226
102,yamada,46.22,10.83,100,85,39.47,141.95,JP,1587311227
103,belinskiy,46.08,4.09,100,52,52.96,43.42,RU,1587311227
104,rettikhovka,44.6,4.54,100,65,44.17,132.77,RU,1587311227
105,severo-kurilsk,26.64,16.26,15,91,50.68,156.12,RU,1587311227
106,hobyo,86.11,11.21,100,65,5.35,48.53,SO,1587311227
107,gorahun,90.32,2.64,100,54,7.47,-11.24,SL,1587311227
108,hofn,46.4,8.05,90,87,64.25,-15.21,IS,1587311228
109,challakere,90.73,8.05,12,18,14.32,76.65,IN,1587311228
110,college,42.01,2.01,90,93,64.86,-147.8,US,1587311228
111,moose factory,8.6,12.75,40,60,51.26,-80.61,CA,1587311228
112,northam,63.0,10.0,21,65,51.03,-4.22,GB,1587311229
113,taligaman,72.7,1.86,100,89,8.9,125.66,PH,1587311229
114,nanortalik,29.48,14.0,14,89,60.14,-45.24,GL,1587311229
115,tiznit,61.38,18.45,81,55,29.58,-9.5,MA,1587311229
116,baykit,25.68,2.48,0,91,61.67,96.37,RU,1587311230
117,port alfred,72.0,1.01,39,83,-33.59,26.89,ZA,1587311230
118,orsha,42.87,11.3,100,59,54.52,30.41,BY,1587311230
119,bure,74.66,2.24,100,13,10.7,37.07,ET,1587311230
120,nhulunbuy,82.11,8.88,0,78,-12.23,136.77,AU,1587311230
121,nizhniy kuranakh,13.1,5.12,100,90,58.84,125.49,RU,1587311230
122,guna,87.17,5.73,77,17,24.65,77.32,IN,1587311230
123,iskateley,32.97,2.26,100,96,67.68,53.15,RU,1587311231
124,thompson,15.8,5.82,90,72,55.74,-97.86,CA,1587311117
125,port hawkesbury,37.0,16.11,90,80,45.62,-61.35,CA,1587311231
126,buala,81.0,3.69,96,80,-8.14,159.59,SB,1587311177
127,georgetown,84.2,5.82,20,88,5.41,100.34,MY,1587311231
128,antalaha,78.21,9.22,4,81,-14.9,50.28,MG,1587311231
129,belmonte,75.2,6.93,75,88,-15.86,-38.88,BR,1587311231
130,golovchino,48.2,13.42,100,36,50.53,35.8,RU,1587311232
131,saint-philippe,77.0,19.46,20,78,-21.36,55.77,RE,1587311232
132,albion,53.6,10.29,75,50,42.24,-84.75,US,1587311232
133,grandola,64.4,16.11,75,52,38.18,-8.57,PT,1587311232
134,isangel,78.93,15.95,100,85,-19.55,169.27,VU,1587311233
135,nanakuli,68.0,3.71,1,100,21.39,-158.15,US,1587311233
136,necochea,78.01,17.0,3,51,-38.55,-58.74,AR,1587311233
137,montepuez,74.43,5.97,90,71,-13.13,39.0,MZ,1587311233
138,ulaangom,36.28,1.72,0,52,49.98,92.07,MN,1587311234
139,dosso,106.65,2.73,99,13,13.05,3.19,NE,1587311234
140,butaritari,82.47,14.27,10,77,3.07,172.79,KI,1587311234
141,touros,87.8,8.05,40,70,-5.2,-35.46,BR,1587311234
142,nanchang,61.23,0.63,0,76,28.68,115.88,CN,1587311082
143,kozhevnikovo,49.44,4.81,100,60,56.26,83.97,RU,1587311235
144,ust-nera,-1.37,4.59,94,77,64.57,143.2,RU,1587311235
145,praia da vitoria,64.4,31.97,20,55,38.73,-27.07,PT,1587311235
146,kokkola,44.01,6.93,1,71,63.84,23.13,FI,1587311235
147,leningradskiy,3.92,6.42,94,91,69.38,178.42,RU,1587311235
148,narsaq,32.0,4.7,3,85,60.92,-46.05,GL,1587311235
149,bethel,57.0,14.99,1,43,41.37,-73.41,US,1587311236
150,marawi,69.85,2.51,98,73,8.0,124.29,PH,1587311236
151,picayune,80.01,12.75,20,83,30.53,-89.68,US,1587311236
152,windhoek,73.4,3.36,70,56,-22.56,17.08,NA,1587311092
153,verkh-usugli,17.94,7.43,25,81,52.7,115.17,RU,1587311237
154,entre rios,82.85,8.25,43,69,-11.94,-38.08,BR,1587311237
155,pecos,73.99,21.92,1,17,31.42,-103.49,US,1587311237
156,laizhou,48.69,9.86,0,86,37.18,119.93,CN,1587311237
157,qaanaaq,15.82,11.65,39,84,77.48,-69.36,GL,1587311237
158,husavik,51.8,24.16,90,62,66.04,-17.34,IS,1587311238
159,bairiki,78.8,8.05,40,88,1.33,172.98,KI,1587311238
160,pointe-noire,86.0,9.17,20,74,-4.78,11.86,CG,1587311238
161,clyde river,1.4,4.68,75,77,70.47,-68.59,CA,1587311238
162,adrar,84.09,13.73,0,14,20.5,-10.07,MR,1587311238
163,imbituba,75.2,5.82,40,64,-28.24,-48.67,BR,1587311238
164,gat,78.01,14.16,7,39,31.61,34.76,IL,1587311239
165,jatai,72.39,9.1,99,71,-17.88,-51.71,BR,1587311239
166,aykhal,21.2,2.24,0,48,66.0,111.5,RU,1587311239
167,east london,79.93,21.18,6,62,-33.02,27.91,ZA,1587311220
168,pokrovsk,55.22,6.96,89,37,48.28,37.18,UA,1587311239
169,hit,84.52,8.12,42,22,33.64,42.83,IQ,1587311239
170,piacabucu,83.71,8.61,33,72,-10.41,-36.43,BR,1587311239
171,tasiilaq,32.0,23.04,100,97,65.61,-37.64,GL,1587311240
172,mabaruma,83.39,6.78,55,72,8.2,-59.78,GY,1587311240
173,le port,77.0,17.22,40,78,-20.94,55.29,RE,1587311240
174,palmer,54.0,10.29,20,51,42.16,-72.33,US,1587310994
175,chokurdakh,7.5,10.13,100,95,70.63,147.92,RU,1587311240
176,great falls,43.0,9.17,1,86,47.5,-111.3,US,1587311240
177,taihe,64.87,6.69,100,62,30.87,105.38,CN,1587311241
178,tokmak,55.71,7.72,100,49,47.25,35.71,UA,1587311241
179,nova russas,87.76,2.51,7,60,-4.71,-40.56,BR,1587311241
180,yellowknife,19.4,11.41,40,79,62.46,-114.35,CA,1587311241
181,monroe,54.0,23.04,75,40,43.15,-77.68,US,1587310942
182,hanyang,59.32,2.21,100,60,32.14,105.51,CN,1587311241
183,cherskiy,-3.26,7.85,99,92,68.75,161.3,RU,1587311241
184,atuona,82.81,16.15,91,74,-9.8,-139.03,PF,1587311242
185,sibolga,78.78,4.23,100,82,1.74,98.78,ID,1587311242
186,chuy,71.15,7.92,0,67,-33.7,-53.46,UY,1587311242
187,ahipara,61.74,4.0,100,75,-35.17,173.17,NZ,1587311242
188,silvania,78.8,13.87,75,69,-16.66,-48.61,BR,1587311242
189,hami,65.14,10.42,99,18,42.8,93.45,CN,1587311242
190,susuman,-6.25,3.02,100,79,62.78,148.17,RU,1587311242
191,aksarka,33.84,6.44,100,97,66.56,67.8,RU,1587311243
192,namibe,80.6,17.22,20,65,-15.2,12.15,AO,1587311243
193,zharkent,63.66,4.07,0,22,44.16,80.0,KZ,1587311243
194,torbay,30.99,26.4,90,92,47.67,-52.73,CA,1587311243
195,nadym,34.63,14.2,100,98,65.53,72.52,RU,1587311243
196,gamba,84.54,7.14,10,69,-2.65,10.0,GA,1587311243
197,saskylakh,17.65,7.9,0,92,71.92,114.08,RU,1587311243
198,el angel,57.2,4.16,75,71,0.62,-77.93,EC,1587311244
199,bubaque,80.28,12.66,55,55,11.28,-15.83,GW,1587311244
200,iqaluit,-4.0,2.24,5,70,63.75,-68.51,CA,1587311244
201,lavrentiya,15.03,8.7,100,94,65.58,-171.0,RU,1587311245
202,poum,79.25,13.53,49,81,-20.23,164.02,NC,1587311245
203,castanos,84.99,3.0,2,41,26.78,-101.42,MX,1587311246
204,te anau,46.26,8.81,87,69,-45.42,167.72,NZ,1587311246
205,provideniya,17.51,15.12,100,95,64.38,-173.3,RU,1587311246
206,xining,46.51,9.1,98,24,36.62,101.77,CN,1587311246
207,port-gentil,86.0,6.93,75,79,-0.72,8.78,GA,1587311246
208,przasnysz,50.0,16.11,85,37,53.02,20.88,PL,1587311247
209,huarmey,77.45,7.43,10,63,-10.07,-78.15,PE,1587311247
210,saldanha,64.4,10.29,0,77,-33.01,17.94,ZA,1587311247
211,half moon bay,55.99,3.36,90,87,37.46,-122.43,US,1587311247
212,dingle,81.39,9.86,94,72,11.0,122.67,PH,1587311247
213,fort nelson,46.4,2.24,75,52,58.81,-122.7,CA,1587311122
214,poronaysk,31.78,5.32,97,97,49.22,143.12,RU,1587311247
215,ossora,15.76,8.68,100,92,59.24,163.07,RU,1587311247
216,mbeya,64.38,5.39,92,54,-8.9,33.45,TZ,1587311247
217,port lincoln,64.74,23.11,100,79,-34.73,135.87,AU,1587311248
218,gazalkent,71.6,4.7,5,40,41.56,69.77,UZ,1587311119
219,victoria,77.0,5.99,78,83,22.29,114.16,HK,1587311248
220,hudson bay,35.29,15.99,100,70,52.85,-102.38,CA,1587311248
221,bacungan,84.2,4.7,20,74,9.91,118.7,PH,1587311248
222,upernavik,24.33,35.1,86,87,72.79,-56.15,GL,1587311248
223,calvinia,83.43,19.46,1,11,-31.47,19.78,ZA,1587311155
224,pekin,62.01,16.98,11,30,39.91,116.4,CN,1587311047
225,thinadhoo,85.14,11.72,64,76,0.53,72.93,MV,1587311249
226,tineo,57.2,5.82,90,82,43.34,-6.41,ES,1587311249
227,nianzishan,36.12,23.15,100,75,47.52,122.88,CN,1587311249
228,yeppoon,69.8,4.7,90,94,-23.13,150.73,AU,1587311152
229,segovia,61.0,6.96,97,52,41.17,-4.0,ES,1587311249
230,lyuban,45.61,11.79,76,53,52.8,28.0,BY,1587311249
231,san quintin,59.97,12.66,98,74,30.48,-115.95,MX,1587311250
232,ipameri,75.15,6.42,54,67,-17.72,-48.16,BR,1587310989
233,omsukchan,-3.32,4.76,100,82,62.53,155.8,RU,1587311250
234,daru,79.57,7.72,91,86,-9.08,143.21,PG,1587311110
235,igarka,39.43,22.08,100,86,67.47,86.58,RU,1587311250
236,siderno,66.0,1.99,50,26,38.28,16.3,IT,1587311250
237,bojnurd,64.4,2.24,20,39,37.47,57.33,IR,1587311251
238,yulara,75.2,4.7,4,31,-25.24,130.99,AU,1587311251
239,sitka,39.2,6.93,90,93,57.05,-135.33,US,1587311251
240,sanchursk,44.13,4.88,100,60,56.94,47.25,RU,1587311251
241,carnarvon,75.2,13.87,62,78,-24.87,113.63,AU,1587311251
242,amahai,81.81,0.96,98,74,-3.33,128.92,ID,1587311251
243,yeysk,55.42,8.52,100,63,46.7,38.28,RU,1587311251
244,longyearbyen,33.8,4.7,75,80,78.22,15.64,SJ,1587311251
245,saint george,57.99,2.15,1,62,37.1,-113.58,US,1587311252
246,colares,64.99,16.11,75,63,38.8,-9.45,PT,1587311252
247,bathsheba,87.8,23.04,40,55,13.22,-59.52,BB,1587311252
248,tighnabruaich,57.0,11.01,0,53,55.9,-5.24,GB,1587311252
249,vostok,35.01,5.08,100,63,46.49,135.88,RU,1587311252
250,fiumicino,66.0,2.24,20,77,41.77,12.23,IT,1587311252
251,lampazos de naranjo,87.55,10.96,0,22,27.02,-100.52,MX,1587311252
252,cabo san lucas,72.0,7.45,5,88,22.89,-109.91,MX,1587311156
253,puerto narino,82.4,3.36,90,83,-3.77,-70.38,CO,1587311253
254,sakete,84.2,11.41,40,79,6.74,2.66,BJ,1587311253
255,cururupu,87.66,3.04,93,64,-1.83,-44.87,BR,1587311253
256,peleduy,15.12,3.24,10,91,59.63,112.74,RU,1587311253
257,deputatskiy,1.58,5.03,97,83,69.3,139.9,RU,1587311253
258,walvis bay,69.8,12.75,0,60,-22.96,14.51,NA,1587311199
259,diego de almagro,77.88,6.58,0,17,-26.37,-70.05,CL,1587311254
260,plainview,55.99,18.34,1,57,40.78,-73.47,US,1587311254
261,cacoal,78.49,1.83,96,79,-11.44,-61.45,BR,1587311254
262,mao,62.6,11.41,75,93,39.89,4.27,ES,1587311254
263,hambantota,83.66,12.37,99,79,6.12,81.12,LK,1587311254
264,fortuna,52.0,3.0,90,100,40.6,-124.16,US,1587311254
265,clarence town,55.0,2.39,3,93,-32.58,151.78,AU,1587311255
266,coahuayana,85.87,2.37,59,45,18.73,-103.68,MX,1587311255
267,parfenyevo,42.01,2.71,100,68,58.48,43.41,RU,1587311255
268,sorland,42.8,12.75,75,87,67.67,12.69,NO,1587311212
269,ancud,50.0,6.93,90,93,-41.87,-73.82,CL,1587311255
270,norilsk,39.2,31.32,100,69,69.35,88.2,RU,1587311255
271,cairns,77.0,1.12,90,94,-16.92,145.77,AU,1587311256
272,berlevag,37.4,9.17,75,80,70.86,29.09,NO,1587311256
273,asau,57.2,6.93,75,62,46.43,26.4,RO,1587311175
274,kuryk,60.6,9.4,86,58,43.2,51.65,KZ,1587311256
275,tadine,77.95,12.66,94,81,-21.55,167.88,NC,1587311256
276,nyrob,36.5,3.85,80,85,60.73,56.72,RU,1587311256
277,jalu,86.81,5.46,0,13,29.03,21.55,LY,1587311256
278,ahuimanu,78.8,3.36,20,61,21.44,-157.84,US,1587311257
279,padang,79.47,3.18,99,76,-0.95,100.35,ID,1587311257
280,ligayan,85.03,2.01,0,69,4.65,119.47,PH,1587311257
281,uvarovka,40.77,3.49,73,64,55.53,35.61,RU,1587311257
282,abu kamal,82.69,3.47,55,22,34.45,40.92,SY,1587311257
283,belaya gora,-1.1,7.43,93,89,68.53,146.42,RU,1587311257
284,wuwei,54.0,1.01,98,29,37.93,102.64,CN,1587311257
285,raychikhinsk,39.56,10.58,100,75,49.78,129.41,RU,1587311258
286,manzil kamil,86.0,11.41,100,77,35.62,10.67,TN,1587311258
287,arraial do cabo,78.8,8.05,20,65,-22.97,-42.03,BR,1587311258
288,ulladulla,55.99,6.93,57,100,-35.35,150.47,AU,1587311206
289,oussouye,116.6,6.93,4,14,12.48,-16.55,SN,1587311258
290,dharapuram,91.4,6.93,40,38,10.73,77.52,IN,1587311258
291,roding,57.99,15.01,13,59,49.2,12.52,DE,1587311258
292,kakrala,87.73,6.38,41,20,27.9,79.2,IN,1587311258
293,ponta delgada,62.6,32.21,20,59,37.73,-25.67,PT,1587311259
294,kraslava,44.35,11.48,74,57,55.9,27.17,LV,1587311259
295,zhuanghe,51.01,1.99,81,86,39.7,122.99,CN,1587311259
296,shahrud,64.56,6.76,95,26,36.42,54.98,IR,1587311259
297,bengkulu,79.59,3.02,100,80,-3.8,102.27,ID,1587311259
298,nishihara,75.2,12.75,90,88,26.18,127.76,JP,1587311260
299,bom conselho,79.84,8.41,75,61,-9.17,-36.68,BR,1587311260
300,turukhansk,39.47,16.06,100,79,65.82,87.98,RU,1587311260
301,storforshei,40.98,4.81,100,78,66.4,14.52,NO,1587311260
302,bilma,103.12,2.66,2,7,18.69,12.92,NE,1587311260
303,nyurba,12.88,3.49,33,94,63.28,118.33,RU,1587311260
304,kirsanov,46.54,5.75,100,53,52.65,42.72,RU,1587311260
305,san pedro,84.2,9.17,20,70,14.35,121.02,PH,1587311260
306,kiruna,42.8,5.82,20,70,67.86,20.23,SE,1587311261
307,verkhoyansk,3.72,3.15,97,85,67.54,133.38,RU,1587311261
308,gardabani,68.0,10.29,40,40,41.46,45.09,GE,1587311261
309,chernyshevskiy,12.72,3.67,78,92,63.01,112.47,RU,1587311261
310,guarapuava,66.06,4.54,41,43,-25.4,-51.46,BR,1587311078
311,natchitoches,73.4,7.43,90,88,31.77,-93.13,US,1587311261
312,tumut,49.84,0.87,93,59,-35.3,148.22,AU,1587311262
313,geraldton,62.6,3.36,71,77,-28.77,114.6,AU,1587311262
314,harer,67.23,1.39,33,44,9.31,42.13,ET,1587311262
315,bozova,69.8,6.93,10,49,37.36,38.53,TR,1587311262
316,maneadero,60.01,1.01,52,79,31.72,-116.57,MX,1587311262
317,saint-francois,64.0,2.51,100,77,46.42,3.91,FR,1587311262
318,oranjestad,87.8,21.92,75,58,12.52,-70.03,AW,1587311087
319,san cristobal,84.2,2.24,40,62,7.77,-72.22,VE,1587311064
320,noumea,80.01,3.36,82,65,-22.28,166.46,NC,1587311150
321,muros,62.01,8.99,34,84,42.78,-9.06,ES,1587311230
322,leshukonskoye,34.32,3.31,100,96,64.9,45.76,RU,1587311263
323,maragogi,84.29,7.81,87,69,-9.01,-35.22,BR,1587311263
324,hamilton,54.0,6.93,1,62,39.18,-84.53,US,1587311263
325,urubamba,59.0,3.36,20,41,-13.3,-72.12,PE,1587311263
326,shingu,56.7,2.91,100,69,33.73,135.98,JP,1587311242
327,leh,36.99,4.88,28,15,34.17,77.58,IN,1587311264
328,gornopravdinsk,42.96,5.14,37,73,60.05,69.9,RU,1587311264
329,alibag,89.6,3.36,20,62,18.64,72.88,IN,1587311264
330,vila velha,80.6,13.87,20,61,-20.33,-40.29,BR,1587311264
331,pedernales,86.0,13.87,20,66,18.04,-71.74,DO,1587311264
332,huaihua,61.81,3.24,100,80,27.55,109.96,CN,1587311264
333,mandan,39.0,12.75,1,51,46.83,-100.89,US,1587311264
334,comodoro rivadavia,59.0,23.04,0,38,-45.87,-67.5,AR,1587310979
335,axim,87.39,12.03,36,63,4.87,-2.24,GH,1587311181
336,hervey bay,69.01,1.68,8,93,-25.3,152.85,AU,1587311265
337,cruz,87.8,3.36,40,74,-2.92,-40.17,BR,1587311265
338,katsuura,57.04,15.39,96,75,35.13,140.3,JP,1587311265
339,port blair,83.98,9.1,9,75,11.67,92.75,IN,1587310993
340,soldato-aleksandrovskoye,66.2,4.47,97,32,44.27,43.76,RU,1587311265
341,karacabey,68.0,9.17,78,60,40.22,28.4,TR,1587311266
342,darhan,29.61,9.46,0,61,49.49,105.92,MN,1587311266
343,trinidad,82.4,4.7,1,58,-14.83,-64.9,BO,1587311266
344,wad madani,98.8,14.79,2,8,14.4,33.52,SD,1587311266
345,oranjemund,67.12,9.8,0,67,-28.55,16.43,NA,1587311266
346,uniao dos palmares,80.6,8.05,75,83,-9.16,-36.03,BR,1587311267
347,west bay,87.8,8.05,20,66,19.37,-81.42,KY,1587311212
348,bereda,62.01,8.99,42,71,43.27,-7.54,ES,1587311267
349,beroroha,82.27,7.85,1,44,-21.67,45.17,MG,1587311267
350,kerema,79.32,5.46,100,86,-7.96,145.78,PG,1587311267
351,telsiai,47.32,10.13,57,50,55.98,22.25,LT,1587311267
352,chapais,21.2,13.87,90,85,49.78,-74.85,CA,1587311267
353,bonavista,31.96,21.83,100,95,48.65,-53.11,CA,1587311268
354,virginia beach,62.01,14.09,0,49,36.85,-75.98,US,1587311164
355,faya,68.0,9.17,40,77,18.39,42.45,SA,1587311268
356,el alto,75.22,2.8,21,67,-4.27,-81.21,PE,1587311268
357,kamaishi,46.78,13.31,100,84,39.27,141.88,JP,1587311268
358,pochutla,91.0,11.41,5,51,15.74,-96.47,MX,1587311268
359,sterling,57.99,18.34,20,40,39.01,-77.43,US,1587311026
360,mlandizi,84.2,5.82,40,74,-6.7,38.73,TZ,1587311269
361,port macquarie,55.99,6.24,9,96,-31.43,152.92,AU,1587311224
362,chadan,43.66,2.24,0,39,51.28,91.58,RU,1587311269
363,pisco,75.2,5.82,13,69,-13.7,-76.22,PE,1587311269
364,arcata,53.01,2.06,75,87,40.87,-124.08,US,1587311166
365,alamosa,46.4,1.41,1,36,37.47,-105.87,US,1587311111
366,shelburne,42.8,9.17,90,87,44.08,-80.2,CA,1587311269
367,honningsvag,39.2,25.28,75,86,70.98,25.97,NO,1587311269
368,mankono,97.25,4.14,84,31,8.06,-6.19,CI,1587311270
369,ozernovskiy,28.2,17.07,92,90,51.5,156.52,RU,1587311270
370,tauramena,80.22,3.47,90,60,5.02,-72.75,CO,1587311270
371,lucea,84.2,8.05,20,74,18.45,-78.17,JM,1587311270
372,raudeberg,51.8,5.82,0,43,61.99,5.14,NO,1587311270
373,romanovo,55.04,4.76,38,37,52.62,81.23,RU,1587311271
374,chimbote,76.53,9.53,23,67,-9.09,-78.58,PE,1587311271
375,castro,70.36,5.28,2,39,-24.79,-50.01,BR,1587311271
376,da lat,62.71,0.94,32,66,11.95,108.44,VN,1587311253
377,qeshm,84.2,18.34,90,61,26.96,56.27,IR,1587311271
378,sidrolandia,82.4,10.29,54,54,-20.93,-54.96,BR,1587311094
379,yerbogachen,16.88,2.39,0,91,61.28,108.01,RU,1587311272
380,hvide sande,60.01,1.99,0,32,56.0,8.13,DK,1587311272
381,kawalu,75.34,0.94,100,78,-7.38,108.21,ID,1587311272
382,vila do maio,80.6,19.46,20,47,15.13,-23.22,CV,1587311272
383,broome,50.0,14.99,1,56,42.25,-75.83,US,1587311272
384,lock haven,53.01,5.01,64,56,41.14,-77.45,US,1587311272
385,thaba-tseka,61.05,9.57,0,22,-29.52,28.61,LS,1587311273
386,kodiak,42.8,8.05,90,87,57.79,-152.41,US,1587311273
387,alexandria,69.8,13.87,0,68,31.22,29.96,EG,1587311166
388,flinders,57.99,6.85,40,92,-34.58,150.86,AU,1587311273
389,kavaratti,85.98,7.27,3,68,10.57,72.64,IN,1587311273
390,resistencia,84.0,6.93,0,39,-27.46,-58.98,AR,1587311273
391,prince rupert,41.0,3.38,90,100,54.32,-130.32,CA,1587311060
392,novobirilyussy,39.88,10.0,13,60,56.95,90.67,RU,1587311274
393,san luis potosi,82.99,4.7,5,36,22.5,-100.5,MX,1587311161
394,trondheim,42.28,3.6,62,79,63.43,10.4,NO,1587311274
395,hunchun,44.6,8.77,100,78,42.87,130.36,CN,1587311274
396,nizhneudinsk,30.99,3.11,0,73,54.91,99.03,RU,1587311274
397,biak,81.18,1.32,14,73,-0.91,122.88,ID,1587311274
398,rio gallegos,48.2,32.21,73,66,-51.62,-69.22,AR,1587311275
399,ankang,51.01,8.99,93,47,32.68,109.02,CN,1587311275
400,salalah,84.2,8.05,40,70,17.02,54.09,OM,1587311275
401,port-cartier,37.0,17.22,20,59,50.03,-66.87,CA,1587311275
402,lamu,77.7,17.02,100,90,-2.27,40.9,KE,1587311275
403,taphan hin,84.22,10.09,12,56,16.22,100.42,TH,1587311275
404,berlin,55.99,12.75,0,26,52.52,13.41,DE,1587311276
405,yangambi,75.85,2.55,94,78,0.81,24.43,CD,1587311276
406,rairangpur,79.23,15.01,88,50,22.27,86.18,IN,1587311276
407,fukue,62.73,32.03,95,84,32.69,128.84,JP,1587311276
408,nata,86.0,5.99,72,34,8.33,-80.52,PA,1587311276
409,nova olimpia,84.96,3.83,27,60,-14.8,-57.29,BR,1587311276
410,saint-junien,61.0,3.36,100,93,45.88,0.9,FR,1587311277
411,the valley,86.0,10.29,40,58,18.22,-63.06,AI,1587311087
412,mandiana,105.8,0.94,44,16,10.63,-8.68,GN,1587311277
413,moyeuvre-grande,70.0,4.0,8,60,49.25,6.05,FR,1587311277
414,talara,77.49,7.61,16,66,-4.58,-81.27,PE,1587311277
415,peniche,62.01,10.0,1,74,39.36,-9.38,PT,1587311277
416,klaksvik,48.2,11.41,0,76,62.23,-6.59,FO,1587311277
417,puerto madryn,64.9,20.49,88,27,-42.77,-65.04,AR,1587311278
418,antofagasta,66.2,3.36,40,68,-23.65,-70.4,CL,1587311211
419,vilyuysk,6.66,5.86,0,92,63.76,121.62,RU,1587311278
420,tomatlan,82.96,3.15,0,52,19.93,-105.25,MX,1587311278
421,mastic beach,53.01,16.11,1,64,40.77,-72.85,US,1587311206
422,lumajang,79.61,2.86,100,70,-8.13,113.22,ID,1587311278
423,auki,80.89,5.06,99,79,-8.77,160.7,SB,1587311279
424,sena madureira,83.97,4.03,19,47,-9.07,-68.66,BR,1587311279
425,srednekolymsk,-5.33,5.03,4,90,67.45,153.68,RU,1587311279
426,sao paulo de olivenca,79.41,2.13,65,89,-3.38,-68.87,BR,1587311279
427,pevek,3.0,4.59,100,94,69.7,170.31,RU,1587311279
428,lompoc,53.6,3.36,1,87,34.64,-120.46,US,1587311279
429,portmore,86.0,18.34,20,66,17.97,-76.87,JM,1587311279
430,pacific grove,57.0,3.36,1,71,36.62,-121.92,US,1587311280
431,rochegda,38.82,3.18,100,82,62.8,43.25,RU,1587311280
432,paamiut,29.25,20.15,76,89,61.99,-49.67,GL,1587311280
433,keetmanshoop,95.0,8.05,0,14,-26.58,18.13,NA,1587311280
434,rock springs,39.2,9.17,1,38,41.59,-109.2,US,1587311280
435,dalby,51.01,3.36,0,81,-27.18,151.27,AU,1587311280
436,thisted,57.0,4.0,0,53,56.96,8.69,DK,1587311280
437,santa cruz de la palma,69.8,12.75,75,60,28.68,-17.76,ES,1587311280
438,bintulu,80.6,4.7,75,94,3.17,113.03,MY,1587311281
439,guerrero negro,61.14,15.61,38,72,27.98,-114.06,MX,1587311281
440,tongchuan,57.88,5.86,100,33,35.08,109.09,CN,1587311281
441,chongqing,66.2,8.95,40,77,29.56,106.55,CN,1587311281
442,lodwar,81.66,7.11,91,41,3.12,35.6,KE,1587311281
443,chacabuco,79.0,13.0,19,46,-34.64,-60.47,AR,1587311068
444,svetlaya,36.84,1.05,100,82,46.54,138.33,RU,1587311243
445,stephenville,68.0,8.05,75,88,32.22,-98.2,US,1587311004
446,norman wells,24.8,19.46,75,92,65.28,-126.83,CA,1587311282
447,buchanan,91.4,9.17,40,66,5.88,-10.05,LR,1587311282
448,oktyabrskiy,45.12,4.81,95,55,54.48,53.47,RU,1587311282
449,valparaiso,77.0,6.93,0,57,-33.04,-71.63,CL,1587311282
450,coquimbo,57.2,10.29,90,93,-29.95,-71.34,CL,1587311282
451,luau,74.66,3.04,81,63,-10.71,22.22,AO,1587311282
452,palimbang,83.26,2.98,100,73,6.21,124.19,PH,1587311283
453,shu,59.9,11.74,0,37,43.6,73.76,KZ,1587311283
454,byron bay,63.0,6.93,0,93,-28.65,153.62,AU,1587311283
455,yar-sale,34.12,10.29,100,98,66.83,70.83,RU,1587311283
456,damghan,65.73,5.08,79,28,36.17,54.35,IR,1587311283
457,itapirapua,83.91,4.85,62,60,-15.82,-50.61,BR,1587311283
458,maracaibo,85.48,3.11,44,61,10.63,-71.64,VE,1587311265
459,benghazi,68.86,11.61,1,43,32.12,20.07,LY,1587311284
460,dudinka,39.2,31.32,100,69,69.41,86.18,RU,1587311051
461,north fort myers,91.0,10.29,1,52,26.67,-81.88,US,1587311284
462,muzhi,34.68,3.78,100,97,65.37,64.67,RU,1587311284
463,talcahuano,62.6,4.7,100,67,-36.72,-73.12,CL,1587311232
464,kemijarvi,35.76,5.77,100,93,66.71,27.43,FI,1587311284
465,maple creek,42.08,12.86,4,46,49.92,-109.48,CA,1587311284
466,esna,89.6,5.82,0,27,25.29,32.55,EG,1587311284
467,cayenne,77.0,3.36,98,100,4.93,-52.33,GF,1587311284
468,bertoua,71.44,6.62,96,77,4.58,13.68,CM,1587311285
469,talaya,-6.0,3.42,100,82,61.38,152.75,RU,1587311285
470,ise,62.01,13.87,75,72,34.48,136.7,JP,1587311285
471,tazovskiy,36.01,11.18,100,98,67.47,78.7,RU,1587311285
472,paithan,90.12,5.68,47,19,19.48,75.38,IN,1587311285
473,durban,73.4,14.99,20,73,-29.86,31.03,ZA,1587311285
474,moyale,72.05,5.68,100,64,3.52,39.06,KE,1587311285
475,petrovskoye,41.16,0.92,99,65,57.01,39.27,RU,1587311286
476,andrelandia,70.47,3.44,99,49,-21.74,-44.31,BR,1587311286
477,havre-saint-pierre,33.8,16.11,1,64,50.23,-63.6,CA,1587311286
478,plattsburgh,54.0,20.8,1,46,44.7,-73.45,US,1587311286
479,asosa,83.8,2.37,99,11,10.07,34.53,ET,1587311286
480,sept-iles,37.0,17.22,20,59,50.2,-66.38,CA,1587311286
481,tautira,78.8,4.7,75,78,-17.73,-149.15,PF,1587311287
482,preston,62.01,8.99,12,36,53.77,-2.72,GB,1587311287
483,kapuskasing,14.0,10.29,40,56,49.42,-82.43,CA,1587311287
484,rudbar,77.65,3.94,47,31,30.15,62.6,AF,1587311287
485,asfi,67.41,14.54,11,60,32.3,-9.24,MA,1587311287
486,kainantu,61.05,1.28,60,61,-6.29,145.87,PG,1587311287
487,nogata,62.6,19.46,75,93,33.73,130.73,JP,1587311287
488,mitu,83.32,3.56,38,59,1.2,-70.17,CO,1587311089
489,karpathos,64.4,9.17,20,72,35.51,27.21,GR,1587311288
490,bontang,77.0,5.03,99,85,0.13,117.5,ID,1587311288
491,amga,8.47,2.77,16,90,60.9,131.96,RU,1587311288
492,kodinsk,26.42,4.88,0,90,58.69,99.18,RU,1587311288
493,negombo,80.6,5.82,40,88,7.21,79.84,LK,1587311288
494,ostrovnoy,31.91,19.66,100,98,68.05,39.51,RU,1587311288
495,bandarbeyla,83.39,13.35,32,65,9.49,50.81,SO,1587311289
496,chirongui,82.4,10.29,20,69,-12.93,45.15,YT,1587311289
497,omihachiman,57.99,1.01,100,90,35.13,136.1,JP,1587311289
498,tanete,78.48,0.83,47,81,-3.94,119.78,ID,1587311289
499,filadelfia,57.99,14.99,20,37,39.95,-75.16,US,1587311197
500,nambour,61.0,3.04,12,97,-26.63,152.95,AU,1587311289
501,lewistown,55.99,1.01,50,53,40.6,-77.57,US,1587311289
502,meadow lake,60.01,12.68,20,40,34.8,-106.54,US,1587311289
503,nalut,99.72,18.07,76,9,30.33,10.85,LY,1587311289
504,trincomalee,82.81,7.7,1,77,8.57,81.23,LK,1587311290
505,cascais,64.99,16.11,75,63,38.7,-9.42,PT,1587311290
506,merauke,78.53,8.57,69,87,-8.47,140.33,ID,1587311290
507,wageningen,64.99,12.75,3,27,51.97,5.67,NL,1587311290
508,gizo,81.57,2.44,98,75,-8.1,156.84,SB,1587311290
509,bacolod,82.69,6.96,80,72,10.67,122.95,PH,1587311281
510,san patricio,77.0,3.42,5,78,19.22,-104.7,MX,1587311290
511,tanhacu,80.24,3.51,92,58,-14.02,-41.25,BR,1587311291
512,zaranj,69.8,2.62,20,68,30.97,61.88,AF,1587311291
513,parfino,43.05,11.12,41,65,57.97,31.65,RU,1587311291
514,coihaique,48.2,10.29,90,66,-45.58,-72.07,CL,1587311292
515,forio,66.0,3.0,98,70,40.73,13.86,IT,1587311292
516,vestmanna,48.2,11.41,0,76,62.16,-7.17,FO,1587311292
517,pando,79.0,9.17,0,60,-34.72,-55.95,UY,1587311292
518,santarem,75.2,8.05,90,100,-2.44,-54.71,BR,1587311292
519,santa rosalia,67.57,4.47,70,35,27.32,-112.28,MX,1587311292
520,porto novo,84.2,11.41,40,79,6.5,2.6,BJ,1587311293
521,port hardy,46.4,4.7,90,93,50.7,-127.42,CA,1587311293
522,shahr-e kord,57.2,9.17,40,50,32.33,50.86,IR,1587311293
523,sao joao da barra,80.6,6.93,75,54,-21.64,-41.05,BR,1587311293
524,ust-tsilma,35.26,3.69,100,97,65.44,52.15,RU,1587311293
525,sobolevo,43.02,9.86,93,58,54.43,31.9,RU,1587311293
526,lawrenceburg,50.0,5.82,75,66,38.04,-84.9,US,1587311294
527,neiafu,78.8,11.41,40,83,-18.65,-173.98,TO,1587311294
528,kanor,87.8,14.34,67,17,24.43,74.27,IN,1587311294
529,arman,0.45,10.02,0,82,59.7,150.17,RU,1587311294
530,besikduzu,55.4,6.93,40,93,41.05,39.23,TR,1587311294
531,honiara,77.0,1.36,20,100,-9.43,159.95,SB,1587311294
532,jieshi,79.0,7.0,65,83,22.81,115.83,CN,1587311294
533,kushmurun,51.3,4.99,100,56,52.45,64.63,KZ,1587311295
534,flin flon,35.6,14.99,90,87,54.77,-101.86,CA,1587311117
535,odessa,55.4,6.71,100,66,46.48,30.73,UA,1587311130
536,lambarene,82.17,3.6,96,85,-0.7,10.24,GA,1587311295
537,suntar,16.0,3.87,91,94,62.14,117.63,RU,1587311295
538,rocha,71.83,8.59,0,63,-34.48,-54.33,UY,1587311222
539,puerto el triunfo,82.4,6.93,40,74,13.28,-88.55,SV,1587311296
540,victoria point,66.0,7.47,0,72,-27.58,153.3,AU,1587311232
541,ornskoldsvik,53.6,9.17,80,43,63.29,18.72,SE,1587311296
542,mogadishu,86.0,11.41,20,66,2.04,45.34,SO,1587311084
543,nuuk,32.0,40.26,88,90,64.18,-51.72,GL,1587311296
544,zhigansk,12.47,8.68,75,94,66.77,123.37,RU,1587311170
545,matay,84.65,17.54,0,22,28.42,30.78,EG,1587311296
546,kilindoni,83.03,15.59,79,76,-7.91,39.67,TZ,1587311296
547,oistins,87.8,23.04,40,55,13.07,-59.53,BB,1587311297
548,denpasar,80.6,2.24,20,94,-8.65,115.22,ID,1587311297
549,inirida,77.16,2.93,91,88,3.87,-67.92,CO,1587311297
550,kismayo,83.46,15.99,100,75,-0.36,42.55,SO,1587311297
551,portland,52.0,5.82,75,81,45.52,-122.68,US,1587311231
552,cockburn town,78.12,13.2,18,80,21.46,-71.14,TC,1587311297
553,beloha,74.66,21.5,0,70,-25.17,45.05,MG,1587311297
