,City,Temperature,Wind,Cloud,Humidity,Latitude,Longitude,Country,Date
0,chuy,60.62,5.37,2,83,-33.7,-53.46,UY,1587173981
1,hualmay,70.99,6.62,100,78,-11.1,-77.61,PE,1587174162
2,mataura,59.0,8.99,35,67,-46.19,168.86,NZ,1587173972
3,atuona,82.35,13.06,84,75,-9.8,-139.03,PF,1587173979
4,tuatapere,59.0,8.99,34,67,-46.13,167.68,NZ,1587173992
5,bathsheba,80.6,14.99,40,74,13.22,-59.52,BB,1587174163
6,margate,48.0,11.01,99,76,51.38,1.39,GB,1587174163
7,ushuaia,51.8,19.46,40,40,-54.8,-68.3,AR,1587174140
8,ayan,24.91,13.67,80,80,56.45,138.17,RU,1587174163
9,namatanai,83.17,7.63,98,73,-3.67,152.43,PG,1587173887
10,avarua,82.4,6.93,10,61,-21.21,-159.78,CK,1587174163
11,harper,81.27,10.6,97,87,4.38,-7.72,LR,1587174163
12,namibe,73.78,5.99,81,71,-15.2,12.15,AO,1587174008
13,touros,77.0,8.28,20,94,-5.2,-35.46,BR,1587174164
14,butaritari,82.33,14.81,82,80,3.07,172.79,KI,1587173865
15,itarema,76.08,3.09,75,87,-2.92,-39.92,BR,1587174164
16,bredasdorp,55.99,4.7,100,87,-34.53,20.04,ZA,1587174164
17,bonthe,80.01,8.81,100,84,7.53,-12.51,SL,1587174164
18,airai,73.24,4.32,94,52,-8.93,125.41,TL,1587174036
19,bethel,37.99,5.21,90,86,41.37,-73.41,US,1587173983
20,kaitangata,53.01,24.0,96,82,-46.28,169.85,NZ,1587174165
21,busselton,64.0,7.09,98,51,-33.65,115.33,AU,1587173868
22,chapada dos guimaraes,78.8,9.17,80,50,-15.46,-55.75,BR,1587174165
23,port alfred,64.0,4.0,55,94,-33.59,26.89,ZA,1587174165
24,vaini,82.4,10.29,20,69,-21.2,-175.2,TO,1587174165
25,saint-denis,64.4,12.75,98,59,48.92,2.33,FR,1587174165
26,rikitea,77.36,1.99,1,63,-23.12,-134.97,PF,1587173875
27,albany,41.0,3.87,100,72,42.6,-73.97,US,1587174004
28,nabire,89.26,5.84,66,59,-3.37,135.48,ID,1587174166
29,punta arenas,51.8,11.41,14,66,-53.15,-70.92,CL,1587173970
30,talnakh,28.4,20.13,97,79,69.49,88.4,RU,1587174166
31,bud,39.2,16.11,90,86,39.45,-86.18,US,1587173869
32,bluff,57.99,11.01,47,65,-46.6,168.33,NZ,1587174166
33,apango,69.3,5.7,81,49,17.73,-99.33,MX,1587174167
34,victoria,78.01,8.01,100,69,22.29,114.16,HK,1587174167
35,vao,74.79,9.75,51,69,-22.67,167.48,NC,1587174167
36,nishihara,77.0,12.75,40,69,26.18,127.76,JP,1587174167
37,brae,37.4,2.24,0,67,60.4,-1.35,GB,1587173882
38,yellowknife,28.0,9.17,75,58,62.46,-114.35,CA,1587174167
39,faanui,82.85,3.98,100,67,-16.48,-151.75,PF,1587174167
40,miyako,49.96,12.97,100,82,39.64,141.95,JP,1587174167
41,ponta do sol,57.0,3.0,12,70,32.67,-17.1,PT,1587173980
42,ternate,84.51,4.18,19,75,0.8,127.4,ID,1587173871
43,ribeira grande,60.24,12.75,67,80,38.52,-28.7,PT,1587173874
44,verkhnevilyuysk,15.21,6.58,100,87,63.45,120.32,RU,1587174168
45,ntchisi,58.93,6.55,59,69,-13.53,33.91,MW,1587174168
46,malanville,85.46,3.02,62,13,11.87,3.39,BJ,1587174168
47,shakhtinsk,44.6,11.18,28,44,49.71,72.59,KZ,1587174169
48,auning,28.4,1.12,0,86,56.43,10.38,DK,1587174169
49,hermanus,57.0,5.01,84,83,-34.42,19.23,ZA,1587174169
50,tuktoyaktuk,15.8,12.75,90,85,69.45,-133.04,CA,1587174169
51,noshiro,55.4,2.24,75,62,40.2,140.02,JP,1587174169
52,tasiilaq,33.8,14.99,73,86,65.61,-37.64,GL,1587173970
53,elizabeth city,64.4,16.11,1,55,36.29,-76.25,US,1587174170
54,geraldton,79.0,8.05,40,61,-28.77,114.6,AU,1587174170
55,lompoc,57.2,6.93,90,76,34.64,-120.46,US,1587174170
56,kamenka,32.0,8.84,1,84,51.32,42.77,RU,1587174170
57,murdochville,15.73,6.11,0,90,48.96,-65.5,CA,1587174170
58,hirado,63.0,16.11,40,59,33.36,129.55,JP,1587174170
59,lebu,60.78,3.69,100,94,-37.62,-73.65,CL,1587173984
60,cabo san lucas,79.0,26.4,5,77,22.89,-109.91,MX,1587174139
61,port elizabeth,62.6,5.82,57,88,-33.92,25.57,ZA,1587174171
62,shenjiamen,60.67,14.14,86,73,29.96,122.3,CN,1587174171
63,lasa,48.0,1.57,93,51,46.62,10.7,IT,1587174044
64,tevaitoa,83.88,2.84,100,64,-16.78,-151.5,PF,1587174171
65,kapaa,80.6,11.41,1,61,22.08,-159.32,US,1587173997
66,hofn,42.24,10.0,100,83,64.25,-15.21,IS,1587174171
67,castro,51.35,3.85,69,67,-24.79,-50.01,BR,1587174171
68,toora-khem,39.49,5.41,38,45,52.47,96.11,RU,1587174172
69,arraial do cabo,73.8,10.36,73,70,-22.97,-42.03,BR,1587173926
70,ambilobe,73.6,7.11,56,74,-13.2,49.05,MG,1587174172
71,bilma,80.44,8.23,0,13,18.69,12.92,NE,1587174172
72,hilo,80.6,10.29,40,57,19.73,-155.09,US,1587174172
73,jalingo,84.13,4.63,0,54,8.88,11.37,NG,1587174172
74,waipawa,64.4,19.46,1,63,-41.41,175.52,NZ,1587174173
75,saskylakh,8.71,4.99,0,88,71.92,114.08,RU,1587173929
76,terenos,66.2,4.7,0,55,-20.44,-54.86,BR,1587174173
77,provideniya,26.51,20.11,100,95,64.38,-173.3,RU,1587174173
78,saldanha,53.6,3.36,8,76,-33.01,17.94,ZA,1587174173
79,mahebourg,75.2,3.36,40,78,-20.41,57.7,MU,1587174032
80,snyder,51.8,4.7,1,62,32.72,-100.92,US,1587174173
81,zlobin,44.01,5.99,65,82,45.29,14.65,HR,1587174173
82,pisco,71.01,13.87,3,77,-13.7,-76.22,PE,1587174174
83,shimoda,62.6,28.86,75,88,34.67,138.95,JP,1587174174
84,puerto ayora,77.0,6.33,82,91,-0.74,-90.35,EC,1587174174
85,new norfolk,55.0,3.0,93,79,-42.78,147.06,AU,1587173927
86,thompson,32.0,6.93,90,97,55.74,-97.86,CA,1587173970
87,kunda,93.42,4.29,17,17,25.72,81.52,IN,1587174174
88,pevek,8.28,9.26,23,93,69.7,170.31,RU,1587173944
89,rancho santa margarita,62.01,8.01,49,76,33.64,-117.6,US,1587174176
90,chokurdakh,-3.08,4.85,50,90,70.63,147.92,RU,1587173979
91,chateauroux,55.4,6.93,86,100,46.82,1.7,FR,1587174176
92,nikolskoye,37.4,15.66,75,89,59.7,30.79,RU,1587173909
93,camacha,60.8,5.82,20,72,33.08,-16.33,PT,1587174176
94,matinha,73.94,1.21,100,96,-3.1,-45.03,BR,1587174177
95,marawi,86.72,3.96,2,37,8.0,124.29,PH,1587174177
96,severo-kurilsk,32.92,12.95,8,92,50.68,156.12,RU,1587174177
97,bandarbeyla,81.5,6.85,42,72,9.49,50.81,SO,1587174177
98,kandi,83.79,5.5,38,54,11.13,2.94,BJ,1587174177
99,kenai,48.2,3.44,90,70,60.55,-151.26,US,1587174177
100,ziro,58.03,1.72,92,51,27.63,93.83,IN,1587174177
101,kandrian,86.92,3.36,41,63,-6.22,149.55,PG,1587174177
102,kodiak,51.8,10.29,90,76,57.79,-152.41,US,1587174178
103,marrakesh,64.4,5.82,40,59,31.63,-8.01,MA,1587173970
104,portobelo,80.01,1.01,15,67,9.55,-79.65,PA,1587174178
105,iqaluit,6.8,2.24,75,84,63.75,-68.51,CA,1587174178
106,kavieng,82.98,4.41,60,71,-2.57,150.8,PG,1587174178
107,aklavik,33.8,4.7,75,74,68.22,-135.01,CA,1587174178
108,kenmare,50.36,6.96,100,92,51.88,-9.58,IE,1587174178
109,bambous virieux,75.2,3.36,40,78,-20.34,57.76,MU,1587173973
110,the valley,80.6,8.05,20,69,18.22,-63.06,AI,1587174180
111,alugan,83.1,13.38,16,77,12.22,125.48,PH,1587174180
112,naze,69.8,2.24,75,88,28.37,129.48,JP,1587174180
113,waitati,51.01,5.77,99,97,-45.75,170.57,NZ,1587174181
114,atar,69.31,4.54,4,29,20.52,-13.05,MR,1587174182
115,acapulco,80.6,5.82,5,74,16.86,-99.89,MX,1587174182
116,jamestown,32.0,4.7,90,92,42.1,-79.24,US,1587174182
117,tondano,87.8,5.82,20,70,1.3,124.91,ID,1587174182
118,yibin,65.48,5.26,100,68,28.77,104.62,CN,1587174182
119,tazmalt,64.4,10.29,40,88,36.39,4.4,DZ,1587174183
120,seddon,62.01,9.17,75,67,-37.81,144.89,AU,1587174183
121,kununurra,91.4,5.82,30,46,-15.77,128.73,AU,1587174183
122,santa cruz de tenerife,53.6,2.48,40,87,28.47,-16.25,ES,1587174183
123,cape town,60.01,3.36,55,71,-33.93,18.42,ZA,1587174178
124,portland,75.2,5.82,75,8,45.52,-122.68,US,1587174183
125,korla,63.27,9.51,86,33,41.76,86.15,CN,1587174183
126,port hardy,53.6,13.87,40,71,50.7,-127.42,CA,1587173926
127,caranguejeira,51.8,3.36,0,93,39.75,-8.71,PT,1587174184
128,deputatskiy,-2.02,3.06,9,82,69.3,139.9,RU,1587174184
129,isangel,86.0,5.82,75,70,-19.55,169.27,VU,1587174184
130,novoorsk,41.0,15.66,52,93,51.38,58.98,RU,1587174184
131,malur,86.0,6.93,95,100,13.01,77.94,IN,1587173986
132,hosdurga,82.35,5.79,43,47,13.8,76.29,IN,1587174184
133,souillac,75.2,3.36,40,78,-20.52,57.52,MU,1587174184
134,qui nhon,84.76,4.99,92,68,13.77,109.23,VN,1587174185
135,channel-port aux basques,32.18,18.86,100,93,47.57,-59.14,CA,1587174020
136,saint-philippe,75.2,11.41,75,78,-21.36,55.77,RE,1587174186
137,oblivskaya,41.63,6.87,10,74,48.54,42.5,RU,1587174186
138,burnie,57.0,8.01,99,63,-41.07,145.92,AU,1587174186
139,avera,64.4,3.36,1,63,33.19,-82.53,US,1587173898
140,micomeseng,70.56,0.22,100,85,2.15,10.62,GQ,1587174187
141,illapel,62.01,2.46,9,53,-31.63,-71.17,CL,1587174187
142,znamenskoye,53.15,13.94,98,57,57.13,73.83,RU,1587174187
143,iranshahr,76.35,2.57,17,31,27.2,60.68,IR,1587174187
144,te anau,51.21,8.61,49,56,-45.42,167.72,NZ,1587173932
145,norman wells,39.2,2.24,75,55,65.28,-126.83,CA,1587173903
146,qaanaaq,11.48,8.03,13,80,77.48,-69.36,GL,1587174188
147,flinders,70.0,4.0,0,44,-34.58,150.86,AU,1587174134
148,launceston,59.0,8.05,40,50,-41.45,147.17,AU,1587174076
149,hobyo,83.16,10.69,30,75,5.35,48.53,SO,1587173999
150,dingle,89.1,13.56,39,58,11.0,122.67,PH,1587174189
151,hasaki,57.2,20.8,75,93,35.73,140.83,JP,1587174191
152,hithadhoo,83.88,14.45,10,79,-0.6,73.08,MV,1587174191
153,east london,66.22,11.32,12,84,-33.02,27.91,ZA,1587174174
154,sitka,51.8,4.7,75,76,57.05,-135.33,US,1587174191
155,chernyshevskiy,13.98,8.97,0,84,63.01,112.47,RU,1587174191
156,hobart,55.99,17.22,20,43,-42.88,147.33,AU,1587173934
157,noumea,86.0,9.17,39,51,-22.28,166.46,NC,1587174191
158,dikson,25.12,14.9,91,97,73.51,80.55,RU,1587174011
159,xichang,72.32,4.81,94,25,27.9,102.26,CN,1587174192
160,mozarlandia,72.63,3.89,5,86,-14.74,-50.57,BR,1587174192
161,severnyy,35.6,6.71,40,59,50.68,36.55,RU,1587174192
162,kloulklubed,84.2,11.41,75,79,7.04,134.26,PW,1587174007
163,okhotsk,22.78,5.7,100,92,59.38,143.3,RU,1587173899
164,magadan,22.26,17.67,100,96,59.57,150.8,RU,1587173992
165,teguldet,43.61,5.61,0,62,57.31,88.17,RU,1587174193
166,sarkikaraagac,49.37,2.91,93,39,38.08,31.37,TR,1587174193
167,port macquarie,73.99,7.63,100,57,-31.43,152.92,AU,1587174194
168,kaseda,64.4,17.22,40,45,31.42,130.32,JP,1587174194
169,great yarmouth,46.0,8.01,87,93,52.61,1.73,GB,1587174194
170,khani,41.0,3.36,90,100,41.96,42.96,GE,1587174194
171,hanmer springs,54.46,16.71,21,41,-42.52,172.82,NZ,1587174194
172,bubaque,79.09,22.77,48,60,11.28,-15.83,GW,1587174194
173,port augusta,64.4,4.7,40,59,-32.5,137.77,AU,1587174194
174,alofi,84.2,12.75,12,70,-19.06,-169.92,NU,1587174036
175,watertown,46.99,5.82,90,31,42.37,-71.18,US,1587174195
176,georgetown,84.2,3.36,20,78,5.41,100.34,MY,1587173962
177,torbay,32.0,6.93,40,58,47.67,-52.73,CA,1587174196
178,rocha,56.98,4.68,0,91,-34.48,-54.33,UY,1587173987
179,barrow,10.4,17.22,90,85,71.29,-156.79,US,1587173927
180,codrington,58.51,7.0,100,64,-38.27,141.97,AU,1587174196
181,winnemucca,62.6,6.93,1,11,40.97,-117.74,US,1587174097
182,clarence town,72.0,9.17,96,33,-32.58,151.78,AU,1587174197
183,evensk,21.33,6.11,1,88,61.95,159.23,RU,1587174197
184,angoche,77.54,3.85,0,80,-16.23,39.91,MZ,1587174197
185,erbaa,41.0,2.24,100,93,40.67,36.57,TR,1587174198
186,iasmos,53.01,1.45,0,87,41.13,25.18,GR,1587174199
187,sambava,73.76,8.16,57,85,-14.27,50.17,MG,1587174199
188,amapa,72.75,0.67,100,94,1.0,-52.0,BR,1587174018
189,sulangan,85.12,7.74,18,69,11.14,123.72,PH,1587174199
190,port lincoln,65.41,12.44,39,60,-34.73,135.87,AU,1587173985
191,tura,77.02,5.12,93,70,25.52,90.22,IN,1587174005
192,ketchikan,55.4,18.34,1,66,55.34,-131.65,US,1587173909
193,mar del plata,62.01,10.29,0,77,-38.0,-57.56,AR,1587174200
194,stornoway,44.6,12.75,0,75,58.21,-6.39,GB,1587174200
195,englewood,48.0,6.15,13,75,39.65,-104.99,US,1587173983
196,buchanan,81.19,7.45,100,89,5.88,-10.05,LR,1587174201
197,hanna,35.74,10.13,100,73,51.63,-111.9,CA,1587174201
198,badou,75.63,4.05,98,86,7.58,0.6,TG,1587174201
199,wanning,80.08,8.3,98,81,18.8,110.4,CN,1587174201
200,saposoa,66.09,1.03,61,80,-6.93,-76.77,PE,1587174201
201,salinas,59.0,8.05,90,67,36.68,-121.66,US,1587173983
202,raudeberg,37.0,6.93,23,74,61.99,5.14,NO,1587174202
203,ciudad bolivar,82.45,14.97,57,57,8.12,-63.55,VE,1587174202
204,upernavik,21.58,4.09,98,90,72.79,-56.15,GL,1587173935
205,ilulissat,26.6,4.7,100,79,69.22,-51.1,GL,1587174016
206,fortuna,61.0,9.17,20,82,40.6,-124.16,US,1587174202
207,port blair,83.5,3.38,61,71,11.67,92.75,IN,1587174131
208,payakumbuh,84.02,2.37,51,55,-0.22,100.63,ID,1587173940
209,linxia,54.21,5.01,26,31,35.6,103.21,CN,1587174203
210,hohhot,55.4,6.71,100,26,40.81,111.65,CN,1587174013
211,lagos,82.4,8.05,40,88,6.58,3.75,NG,1587174101
212,kavaratti,84.72,3.78,96,68,10.57,72.64,IN,1587174204
213,chifeng,60.55,3.4,0,24,42.27,118.96,CN,1587174204
214,awbari,72.01,11.9,0,30,26.59,12.78,LY,1587174205
215,sistranda,39.99,11.41,75,86,63.73,8.83,NO,1587174205
216,vertou,55.0,1.12,3,100,47.17,-1.47,FR,1587174205
217,riverton,52.0,5.82,75,43,40.52,-111.94,US,1587174178
218,rongcheng,66.99,6.87,100,91,30.63,117.85,CN,1587174205
219,ust-ishim,51.4,10.29,100,60,57.69,71.17,RU,1587174205
220,walvis bay,57.0,3.36,0,93,-22.96,14.51,NA,1587173956
221,sola,82.06,9.42,89,75,-13.88,167.55,VU,1587174205
222,kahului,82.4,19.46,40,54,20.89,-156.47,US,1587174063
223,chinsali,62.28,7.96,60,64,-10.54,32.08,ZM,1587174206
224,pundaguitan,82.45,9.55,21,74,6.37,126.17,PH,1587174206
225,vila velha,75.2,13.87,90,78,-20.33,-40.29,BR,1587174206
226,abu samrah,59.2,2.59,1,53,35.3,37.18,SY,1587174206
227,grand gaube,75.2,3.36,40,78,-20.01,57.66,MU,1587174206
228,los llanos de aridane,66.2,6.93,40,68,28.66,-17.92,ES,1587174006
229,kudahuvadhoo,85.35,6.82,67,71,2.67,72.89,MV,1587174206
230,klaksvik,39.2,6.93,0,93,62.23,-6.59,FO,1587173994
231,da nang,80.6,6.93,75,83,16.07,108.22,VN,1587174131
232,saint-augustin,23.63,9.22,100,90,51.23,-58.65,CA,1587174043
233,port keats,88.54,7.56,70,62,-14.25,129.55,AU,1587174207
234,nebolchi,33.39,8.99,95,89,59.12,33.35,RU,1587174207
235,champerico,84.13,4.38,39,69,14.3,-91.92,GT,1587174207
236,tarauaca,68.18,1.72,50,77,-8.16,-70.77,BR,1587174207
237,rabo de peixe,53.6,2.24,20,81,37.8,-25.58,PT,1587174208
238,qeshm,69.8,4.7,99,94,26.96,56.27,IR,1587174208
239,charleston,68.0,4.7,75,77,32.78,-79.93,US,1587174208
240,biak,84.0,1.12,84,70,-0.91,122.88,ID,1587174208
241,saint george,73.0,13.87,1,21,37.1,-113.58,US,1587174208
242,sukhumi,52.52,3.8,99,50,43.0,41.02,GE,1587174209
243,shaowu,82.98,4.23,98,43,27.34,117.48,CN,1587174209
244,esperance,71.6,19.46,90,46,-33.87,121.9,AU,1587174209
245,fuerte olimpo,62.42,4.52,4,48,-21.04,-57.87,PY,1587174210
246,kurim,50.0,4.05,15,84,49.3,16.53,CZ,1587174210
247,hinton,35.47,3.62,100,62,53.4,-117.59,CA,1587174210
248,nanortalik,28.58,14.85,100,90,60.14,-45.24,GL,1587174023
249,neiafu,80.6,5.82,75,88,-18.65,-173.98,TO,1587174210
250,lakes entrance,60.37,15.77,84,62,-37.88,147.98,AU,1587174210
251,mahajanga,68.0,3.36,20,88,-15.72,46.32,MG,1587174210
252,nkongsamba,68.4,0.45,64,79,4.95,9.94,CM,1587174211
253,yamada,50.11,10.31,100,82,39.47,141.95,JP,1587174211
254,vyksa,32.59,8.19,19,90,55.32,42.17,RU,1587174211
255,kanigoro,84.51,2.39,22,71,-8.13,112.22,ID,1587174211
256,aksu,61.02,5.32,100,36,41.12,80.26,CN,1587174212
257,narsaq,30.2,14.99,69,68,60.92,-46.05,GL,1587174212
258,adelanto,57.99,5.99,8,55,34.58,-117.41,US,1587174212
259,fayaoue,78.08,11.03,91,72,-20.65,166.53,NC,1587174212
260,pacific grove,57.0,6.04,99,60,36.62,-121.92,US,1587174212
261,zempoala,82.4,4.7,75,78,19.45,-96.42,MX,1587174213
262,beringovskiy,20.68,23.11,100,97,63.05,179.32,RU,1587174011
263,mentakab,89.56,1.23,59,56,3.49,102.35,MY,1587174213
264,faya,68.0,6.93,0,93,18.39,42.45,SA,1587174213
265,glace bay,32.0,5.82,75,46,46.2,-59.96,CA,1587174213
266,cururupu,76.21,2.04,100,91,-1.83,-44.87,BR,1587173953
267,leshukonskoye,32.76,6.31,100,93,64.9,45.76,RU,1587174213
268,moissala,83.16,6.06,78,50,8.34,17.77,TD,1587174213
269,oum hadjer,77.31,12.84,0,13,13.3,19.7,TD,1587174013
270,pangnirtung,1.42,3.02,100,88,66.15,-65.71,CA,1587174001
271,samarai,85.17,8.34,99,70,-10.62,150.67,PG,1587174200
272,emirdag,50.9,4.45,100,39,39.02,31.15,TR,1587174214
273,petropavlovsk-kamchatskiy,46.4,4.47,0,42,53.05,158.65,RU,1587173995
274,mariental,64.33,2.28,0,17,-24.63,17.97,NA,1587174214
275,altdorf,51.01,4.0,48,69,49.39,11.36,DE,1587174214
276,plettenberg bay,59.86,4.18,85,80,-34.05,23.37,ZA,1587174215
277,dwarka,80.53,11.83,0,75,22.24,68.97,IN,1587174215
278,shingu,62.6,6.93,75,88,33.73,135.98,JP,1587174002
279,lavrentiya,23.23,13.22,100,97,65.58,-171.0,RU,1587174108
280,mareeba,90.0,1.01,98,73,-17.0,145.43,AU,1587174215
281,laguna,62.6,16.11,1,59,38.42,-121.42,US,1587174215
282,anadyr,15.8,11.18,90,78,64.75,177.48,RU,1587174053
283,hibbing,39.2,5.82,1,35,47.43,-92.94,US,1587174216
284,poum,79.02,8.34,93,74,-20.23,164.02,NC,1587174216
285,ancud,55.4,4.7,100,100,-41.87,-73.82,CL,1587174217
286,kaeo,68.0,3.0,38,89,-35.1,173.78,NZ,1587174217
287,fare,84.36,6.04,100,65,-16.7,-151.02,PF,1587174217
288,dunedin,51.01,3.0,99,95,-45.87,170.5,NZ,1587174217
289,henties bay,57.0,3.0,1,93,-22.12,14.28,NA,1587174217
290,biryusinsk,37.47,7.18,100,69,55.96,97.82,RU,1587174217
291,semnan,58.6,1.14,78,33,35.57,53.4,IR,1587174218
292,taoudenni,86.99,3.58,37,23,22.68,-3.98,ML,1587173924
293,tiquisate,82.24,2.82,68,70,14.28,-91.37,GT,1587174218
294,san quintin,59.04,11.77,18,72,30.48,-115.95,MX,1587174218
295,necochea,61.0,5.99,2,86,-38.55,-58.74,AR,1587174218
296,male,85.39,9.19,68,72,4.17,73.51,MV,1587174175
297,pyapon,89.71,6.46,0,37,16.28,95.68,MM,1587174218
298,savalou,79.47,7.65,96,79,7.93,1.98,BJ,1587174218
299,tinskoy,36.7,5.26,95,73,56.15,96.92,RU,1587174219
300,havoysund,37.4,35.57,75,69,71.0,24.66,NO,1587174219
301,hambantota,77.0,2.24,20,100,6.12,81.12,LK,1587174219
302,livingston,41.0,10.29,90,85,55.9,-3.52,GB,1587174157
303,pokhara,74.68,2.37,2,30,28.23,83.98,NP,1587174220
304,tezu,85.42,2.98,24,36,27.92,96.17,IN,1587174220
305,zhezkazgan,55.83,12.33,0,33,47.8,67.71,KZ,1587174042
306,tessalit,81.27,6.76,0,17,20.2,1.01,ML,1587174220
307,nicoya,72.0,21.0,1,81,10.15,-85.45,CR,1587174220
308,katsuura,60.8,9.17,75,93,35.13,140.3,JP,1587174220
309,luena,61.72,3.83,84,65,-11.78,19.92,AO,1587174221
310,hami,66.67,6.11,22,19,42.8,93.45,CN,1587174221
311,lashio,86.67,1.63,9,25,22.93,97.75,MM,1587174222
312,coquimbo,57.2,4.7,0,93,-29.95,-71.34,CL,1587174160
313,asino,43.57,9.48,0,62,57.0,86.15,RU,1587174223
314,inhambane,75.0,7.85,74,83,-23.86,35.38,MZ,1587174223
315,wadi musa,50.9,4.9,0,55,30.32,35.48,JO,1587174223
316,cap malheureux,75.2,3.36,40,78,-19.98,57.61,MU,1587174093
317,tambura,72.52,5.82,100,68,5.6,27.47,SS,1587174224
318,muroto,68.0,19.46,20,42,33.28,134.15,JP,1587174224
319,cherskiy,10.63,9.82,49,91,68.75,161.3,RU,1587174224
320,moose factory,26.6,4.7,1,53,51.26,-80.61,CA,1587173972
321,delicias,59.0,2.24,40,87,41.65,-0.91,ES,1587174220
322,ogbomosho,76.8,9.51,93,79,8.13,4.25,NG,1587174225
323,bilibino,10.0,7.45,75,85,68.05,166.44,RU,1587174226
324,hamilton,48.99,17.22,90,93,39.18,-84.53,US,1587174107
325,vallenar,63.32,1.61,0,53,-28.57,-70.76,CL,1587174226
326,vila franca do campo,53.6,2.24,20,81,37.72,-25.43,PT,1587174226
327,puerto carreno,85.46,3.91,39,53,6.19,-67.49,CO,1587174226
328,gusau,76.01,6.96,8,11,12.16,6.66,NG,1587174227
329,gat,62.01,2.51,0,76,31.61,34.76,IL,1587174227
330,hokota,57.0,14.99,75,93,36.15,140.52,JP,1587174228
331,razole,88.0,8.08,31,66,16.48,81.83,IN,1587174004
332,yartsevo,31.03,9.98,5,92,55.07,32.7,RU,1587174228
333,dokka,30.0,2.48,36,58,60.84,10.06,NO,1587174228
334,tanout,75.6,7.18,0,13,14.97,8.89,NE,1587174228
335,cosenza,51.01,3.36,33,100,39.31,16.25,IT,1587174228
336,suileng,66.51,4.43,0,21,47.25,127.08,CN,1587174228
337,tiznit,55.06,0.49,0,66,29.58,-9.5,MA,1587174229
338,paulo afonso,72.75,4.61,5,87,-9.41,-38.21,BR,1587174229
339,leningradskiy,11.07,10.42,100,94,69.38,178.42,RU,1587174229
340,bayan,64.0,2.33,0,33,46.08,127.4,CN,1587174229
341,tyup,48.81,2.37,12,31,42.73,78.36,KG,1587174230
342,palaikastron,55.0,4.0,99,73,35.2,26.25,GR,1587174230
343,celestun,80.37,15.17,0,83,20.87,-90.4,MX,1587174230
344,karratha,92.41,4.29,74,35,-20.74,116.85,AU,1587174216
345,clyde river,6.8,14.99,90,77,70.47,-68.59,CA,1587173934
346,carauari,73.38,2.01,95,94,-4.88,-66.9,BR,1587174231
347,yulara,75.2,12.75,8,36,-25.24,130.99,AU,1587174231
348,hay river,33.8,4.7,75,74,60.82,-115.8,CA,1587174231
349,ipira,71.55,3.69,40,90,-12.16,-39.74,BR,1587174231
350,santa cruz,65.66,5.93,17,43,-17.8,-63.17,BO,1587174191
351,lorengau,84.31,3.89,59,69,-2.02,147.27,PG,1587174231
352,huarmey,73.33,7.29,75,75,-10.07,-78.15,PE,1587174231
353,auki,81.34,3.22,98,79,-8.77,160.7,SB,1587174232
354,sao joao da barra,72.48,11.12,96,83,-21.64,-41.05,BR,1587174232
355,abaza,41.49,6.85,63,56,52.66,90.09,RU,1587174232
356,lahaina,82.4,18.34,20,54,20.88,-156.68,US,1587174223
357,longyearbyen,30.2,8.05,75,92,78.22,15.64,SJ,1587174232
358,mahibadhoo,85.3,9.01,69,72,3.78,72.97,MV,1587174232
359,tiksi,9.32,6.04,100,93,71.69,128.87,RU,1587174233
360,koscierzyna,28.4,3.36,28,68,54.12,17.98,PL,1587174234
361,sao miguel do araguaia,72.28,1.99,17,83,-13.28,-50.16,BR,1587174192
362,san patricio,78.8,8.93,5,74,19.22,-104.7,MX,1587173970
363,pilar,75.54,0.6,75,88,-9.6,-35.96,BR,1587174234
364,kruisfontein,55.69,3.2,72,84,-34.0,24.73,ZA,1587174235
365,thunder bay,39.2,10.29,5,41,48.4,-89.32,CA,1587174044
366,caravelas,77.63,14.45,17,86,-17.71,-39.25,BR,1587174235
367,morros,73.67,1.59,100,77,-9.45,-46.3,BR,1587174236
368,khatanga,15.76,13.6,0,92,71.97,102.5,RU,1587174205
369,tyret pervaya,40.93,12.12,96,59,53.67,102.31,RU,1587174237
370,teknaf,86.54,5.39,0,58,20.86,92.31,BD,1587174237
371,bengkulu,84.81,4.85,77,68,-3.8,102.27,ID,1587174237
372,guerrero negro,61.3,16.4,0,77,27.98,-114.06,MX,1587174202
373,gracac,46.0,0.58,39,93,44.3,15.85,HR,1587174237
374,khandyga,12.58,4.74,69,84,62.67,135.6,RU,1587174237
375,koulikoro,86.99,4.56,88,18,14.0,-7.75,ML,1587174238
376,cayenne,75.2,6.6,90,100,4.93,-52.33,GF,1587174238
377,egvekinot,12.52,17.78,95,89,66.32,-179.17,RU,1587174238
378,miri,84.2,3.06,75,83,4.41,114.01,MY,1587174238
379,koppang,27.0,1.99,97,74,61.57,11.06,NO,1587174238
380,guangshui,57.4,13.53,98,74,31.62,114.0,CN,1587174239
381,katherine,91.4,6.93,97,52,-14.47,132.27,AU,1587174239
382,sinnamary,79.27,12.19,94,84,5.38,-52.95,GF,1587174239
383,pervomayskiy,33.75,9.86,10,84,53.25,40.29,RU,1587174239
384,anqing,58.82,13.73,100,75,30.51,117.05,CN,1587174239
385,urusha,30.34,9.78,100,64,54.05,122.9,RU,1587174239
386,coruripe,79.29,4.85,43,83,-10.13,-36.18,BR,1587174240
387,gunnedah,64.4,4.7,76,59,-30.98,150.25,AU,1587174240
388,sabha,71.33,11.5,0,30,27.04,14.43,LY,1587174240
389,haputale,77.0,2.24,20,100,6.77,80.96,LK,1587174240
390,marystown,31.06,12.46,43,90,47.17,-55.15,CA,1587173947
391,mayo,54.0,9.17,75,62,38.89,-76.51,US,1587174240
392,comodoro rivadavia,66.2,11.41,77,55,-45.87,-67.5,AR,1587174240
393,imbituba,68.0,6.93,16,82,-28.24,-48.67,BR,1587174241
394,ahipara,67.1,10.94,13,75,-35.17,173.17,NZ,1587174072
395,meulaboh,83.88,3.13,97,71,4.14,96.13,ID,1587174241
396,manokwari,83.95,4.94,33,73,-0.87,134.08,ID,1587174241
397,isla mujeres,82.4,8.05,5,78,21.23,-86.73,MX,1587174241
398,broome,34.0,4.7,90,92,42.25,-75.83,US,1587173961
399,sovetskiy,36.82,6.69,100,91,61.36,63.58,RU,1587174198
400,zhumadian,54.21,6.2,100,75,32.98,114.03,CN,1587174242
401,sampit,88.36,3.06,39,68,-2.53,112.95,ID,1587174242
402,montoro,59.0,4.7,100,93,38.02,-4.38,ES,1587174242
403,czluchow,37.0,3.24,1,52,53.67,17.36,PL,1587174242
404,izhma,34.61,4.45,100,95,65.01,53.91,RU,1587174243
405,maracas,65.41,3.74,92,79,-13.44,-40.43,BR,1587174243
406,omsukchan,7.34,8.99,100,83,62.53,155.8,RU,1587174241
407,camocim,74.86,1.68,100,91,-2.9,-40.84,BR,1587174243
408,kyra,53.55,17.6,100,33,49.58,111.98,RU,1587174243
409,zonguldak,47.57,3.96,26,64,41.25,31.83,TR,1587174243
410,sinegorskiy,41.77,5.35,21,67,48.01,40.84,RU,1587174244
411,kohtla-jarve,35.2,19.42,73,85,59.4,27.27,EE,1587174245
412,port-cartier,28.0,8.05,75,45,50.03,-66.87,CA,1587174245
413,vrani,55.4,2.24,0,54,45.04,21.49,RO,1587174246
414,srednekolymsk,5.32,13.04,100,92,67.45,153.68,RU,1587174246
415,pustomyty,37.4,4.47,15,55,49.72,23.91,UA,1587174247
416,maningrida,87.08,4.94,89,54,-12.07,134.27,AU,1587174247
417,bara,77.79,1.12,0,13,10.37,10.73,NG,1587174247
418,telma,35.6,13.42,90,100,52.7,103.71,RU,1587174247
419,houma,75.2,3.36,1,83,29.6,-90.72,US,1587173979
420,kampot,82.4,2.24,20,78,10.62,104.18,KH,1587174248
421,lang son,77.0,4.85,94,73,21.83,106.73,VN,1587174248
422,sechura,73.65,13.09,6,78,-5.56,-80.82,PE,1587174249
423,kirakira,83.66,1.14,99,73,-10.45,161.92,SB,1587174218
424,vanavara,27.73,8.23,86,87,60.34,102.28,RU,1587174249
425,inuvik,33.8,4.7,75,74,68.35,-133.72,CA,1587174249
426,sattahip,82.4,6.93,20,83,12.67,100.9,TH,1587174249
427,springbok,57.99,8.84,8,24,-29.66,17.89,ZA,1587174250
428,barcelona,62.01,4.7,20,93,41.39,2.16,ES,1587174168
429,omboue,77.7,4.18,100,88,-1.57,9.26,GA,1587174250
430,sao filipe,70.12,18.5,0,76,14.9,-24.5,CV,1587174250
431,havre-saint-pierre,24.8,8.05,1,68,50.23,-63.6,CA,1587174012
432,saint anthony,46.4,8.05,1,30,45.02,-93.22,US,1587174251
433,carnarvon,80.6,5.82,95,69,-24.87,113.63,AU,1587174202
434,kovdor,31.57,12.21,100,89,67.57,30.48,RU,1587174251
435,kurilsk,39.74,7.87,0,69,45.23,147.88,RU,1587174251
436,bulawayo,63.09,12.53,69,57,-20.15,28.58,ZW,1587173997
437,balagansk,43.18,15.21,60,52,54.01,103.05,RU,1587174251
438,cankuzo,60.21,1.34,100,65,-3.13,30.58,BI,1587174252
439,port antonio,84.2,12.75,20,70,18.18,-76.46,JM,1587174252
440,arivonimamo,60.8,6.93,75,87,-19.02,47.18,MG,1587174252
441,jieshi,78.01,3.8,97,73,22.81,115.83,CN,1587174010
442,esmeraldas,71.6,6.93,56,94,-19.76,-44.31,BR,1587174252
443,darnah,57.74,10.87,9,82,32.77,22.64,LY,1587174252
444,chippewa falls,41.0,4.7,1,38,44.94,-91.39,US,1587174004
445,garut,83.08,0.6,38,50,-7.2,107.89,ID,1587174253
446,muros,55.0,1.99,33,91,42.78,-9.06,ES,1587174253
447,tabou,80.65,10.13,98,88,4.42,-7.35,CI,1587174253
448,tilichiki,16.02,16.84,35,91,60.47,166.1,RU,1587174252
449,kamal,87.44,3.36,21,69,-7.17,112.72,ID,1587174253
450,langcangan,87.21,6.4,40,51,8.48,123.76,PH,1587174253
451,reriutaba,72.86,2.28,100,90,-4.14,-40.58,BR,1587174254
452,christchurch,66.99,9.17,2,59,-43.53,172.63,NZ,1587174100
453,beloha,69.04,2.3,0,71,-25.17,45.05,MG,1587174256
454,loandjili,77.4,3.02,98,89,-4.76,11.86,CG,1587174257
455,arlit,80.11,5.23,0,13,18.74,7.39,NE,1587174257
456,mogadishu,83.12,9.08,81,75,2.04,45.34,SO,1587174257
457,hervey bay,91.0,6.93,80,45,-25.3,152.85,AU,1587173965
458,boa vista,86.0,6.93,54,55,2.82,-60.67,BR,1587174257
459,new amsterdam,77.85,8.5,58,82,6.25,-57.52,GY,1587174258
460,tyler,55.4,8.05,90,82,32.35,-95.3,US,1587174258
461,ciudad guayana,77.76,8.66,61,70,8.35,-62.65,VE,1587174152
462,itacoatiara,73.78,1.66,82,96,-3.14,-58.44,BR,1587174258
463,oranjemund,55.27,0.98,19,93,-28.55,16.43,NA,1587174259
464,zeya,36.86,7.09,5,49,53.75,127.27,RU,1587174259
465,asau,50.0,9.17,99,53,46.43,26.4,RO,1587174259
466,dongsheng,52.63,15.14,100,24,39.82,109.98,CN,1587174260
467,saint-joseph,75.2,11.41,75,78,-21.37,55.62,RE,1587174260
468,fort-shevchenko,50.38,14.56,99,65,44.51,50.26,KZ,1587174261
469,kenora,42.8,10.29,75,45,49.82,-94.43,CA,1587174261
470,el alto,73.26,7.78,80,72,-4.27,-81.21,PE,1587174261
471,jos,69.87,4.7,10,52,9.92,8.9,NG,1587174261
472,zlatibor,50.0,2.24,6,46,43.72,19.7,RS,1587174261
473,constitucion,59.63,8.7,1,89,-35.33,-72.42,CL,1587174262
474,severodvinsk,32.0,6.87,90,98,64.56,39.83,RU,1587174262
475,vicksburg,73.4,5.12,40,100,32.35,-90.88,US,1587174179
476,luderitz,53.6,2.24,8,93,-26.65,15.16,NA,1587173984
477,fairview,46.0,4.7,90,70,40.81,-74.0,US,1587173973
478,labuhan,87.76,3.74,45,67,-6.88,112.21,ID,1587174263
479,belmonte,73.4,3.36,75,94,-15.86,-38.88,BR,1587174249
480,nome,35.6,13.87,90,100,64.5,-165.41,US,1587174263
481,buenos aires,63.0,4.7,0,88,-34.61,-58.38,AR,1587174105
482,juneau,53.6,9.17,75,62,58.3,-134.42,US,1587174263
483,tamiahua,78.01,10.09,100,92,21.27,-97.45,MX,1587174263
484,cumana,80.6,17.22,90,78,10.46,-64.18,VE,1587174231
485,nisia floresta,78.8,4.7,40,94,-6.09,-35.21,BR,1587174264
486,bucak,55.4,4.7,96,70,37.46,30.59,TR,1587174264
487,miajadas,55.0,1.99,97,88,39.15,-5.91,ES,1587174264
488,olafsvik,42.3,28.05,100,84,64.89,-23.71,IS,1587174264
489,gort,51.8,10.29,90,87,53.07,-8.82,IE,1587174265
490,carballo,52.0,8.23,45,90,43.21,-8.69,ES,1587174265
491,chute-aux-outardes,30.2,4.7,1,42,49.12,-68.4,CA,1587174265
492,mortka,43.0,10.49,76,72,59.33,66.02,RU,1587174265
493,romny,34.88,8.59,10,81,50.75,33.47,UA,1587174265
494,yelizovo,46.4,4.47,0,42,53.19,158.38,RU,1587174266
495,am timan,75.4,3.96,42,13,11.03,20.28,TD,1587174267
496,paclolo,90.0,10.07,30,55,12.38,121.17,PH,1587174267
497,cockburn town,78.96,17.63,5,80,21.46,-71.14,TC,1587174267
498,srandakan,86.14,1.63,4,64,-7.94,110.25,ID,1587173988
499,zhangye,56.52,10.25,100,23,38.93,100.45,CN,1587174197
500,padang,87.15,0.49,38,62,-0.95,100.35,ID,1587173996
501,tonantins,74.26,1.5,100,94,-2.87,-67.8,BR,1587174268
502,kieta,84.74,2.64,13,69,-6.22,155.63,PG,1587174268
503,scarborough,42.01,4.0,48,74,54.28,-0.4,GB,1587174268
504,nara,61.0,3.36,75,77,34.69,135.8,JP,1587174010
505,qaqortoq,30.2,14.99,85,68,60.72,-46.03,GL,1587174273
506,hegang,62.92,4.52,10,26,47.4,130.37,CN,1587174273
507,kaniama,67.41,1.81,100,73,-7.57,24.18,CD,1587174273
508,etne,35.01,1.99,0,78,59.66,5.93,NO,1587174273
509,vanimo,86.16,3.09,38,65,-2.67,141.3,PG,1587174274
510,wufeng,60.51,3.02,80,46,27.45,104.83,CN,1587174274
511,takoradi,80.89,9.6,100,85,4.88,-1.76,GH,1587174195
512,pascagoula,69.8,3.36,1,83,30.37,-88.56,US,1587174274
513,berlevag,35.06,25.61,100,93,70.86,29.09,NO,1587174274
514,ixtapa,75.2,8.05,5,78,20.7,-105.2,MX,1587174087
515,pujehun,78.85,4.97,100,87,7.36,-11.72,SL,1587174275
516,yumen,56.79,4.94,1,21,40.28,97.2,CN,1587174275
517,eyl,82.31,10.18,8,78,7.98,49.82,SO,1587174275
518,zanjan,47.75,3.69,0,42,36.67,48.48,IR,1587174275
519,manjacaze,71.17,4.32,45,85,-24.71,33.88,MZ,1587174275
520,tadine,78.69,9.44,36,60,-21.55,167.88,NC,1587174276
521,syktyvkar,35.6,3.91,75,94,61.68,50.81,RU,1587174276
522,asosa,69.28,4.5,46,12,10.07,34.53,ET,1587174276
523,umarkot,85.84,14.34,0,37,25.36,69.74,PK,1587174276
524,porto novo,82.06,10.63,47,82,6.5,2.6,BJ,1587174186
525,tabuk,87.49,7.74,35,55,17.42,121.44,PH,1587174277
526,outjo,62.6,1.12,1,67,-20.12,16.15,NA,1587174277
527,fengrun,62.01,0.98,78,26,39.83,118.12,CN,1587174277
528,krasnoselkup,35.85,17.87,100,98,65.7,82.47,RU,1587174278
529,beidao,58.98,3.58,100,33,34.57,105.89,CN,1587174278
530,mashhad,48.2,4.7,37,93,36.3,59.61,IR,1587174278
531,paamiut,26.26,10.94,100,93,61.99,-49.67,GL,1587174278
532,winchester,46.0,9.17,96,87,51.07,-1.32,GB,1587174279
533,nanchong,60.44,11.05,100,74,30.8,106.08,CN,1587174279
534,dunmanway,50.0,10.29,90,100,51.72,-9.12,IE,1587174279
535,zunyi,68.36,3.15,90,62,27.69,106.91,CN,1587174279
536,riyadh,66.2,6.93,5,68,24.69,46.72,SA,1587174281
537,tahoua,79.86,9.44,0,12,14.89,5.27,NE,1587174282
538,north platte,48.2,10.29,1,42,41.12,-100.77,US,1587174282
539,doka,73.17,6.93,18,14,13.52,35.77,SD,1587174277
540,homer,53.6,3.96,90,66,59.64,-151.55,US,1587174075
541,mitsamiouli,83.82,11.34,0,70,-11.38,43.28,KM,1587174283
542,birjand,50.0,6.93,37,66,32.87,59.22,IR,1587174283
543,lodwar,83.44,13.35,100,50,3.12,35.6,KE,1587174283
544,biloela,87.62,8.21,94,31,-24.42,150.5,AU,1587174283
545,borba,72.77,2.17,73,96,-4.39,-59.59,BR,1587174284
546,lagoa,60.37,11.7,58,72,39.05,-27.98,PT,1587174284
547,kurud,96.08,13.18,0,21,20.83,81.72,IN,1587174284
548,kailua,84.2,11.41,20,48,21.4,-157.74,US,1587174285
549,viedma,73.76,19.8,51,39,-40.81,-63.0,AR,1587174285
550,axim,80.69,9.06,100,86,4.87,-2.24,GH,1587174285
